{
"type": "FeatureCollection",
"name": "centroid",
"features": [
{ "type": "Feature", "id": 1, "properties": { "code": "01", "nom": "Ain" }, "geometry": { "type": "Point", "coordinates": [ 5.34872725, 46.099714 ] } },
{ "type": "Feature", "id": 2, "properties": { "code": "02", "nom": "Aisne" }, "geometry": { "type": "Point", "coordinates": [ 3.55928876, 49.561101 ] } },
{ "type": "Feature", "id": 3, "properties": { "code": "03", "nom": "Allier" }, "geometry": { "type": "Point", "coordinates": [ 3.18765634, 46.3935797 ] } },
{ "type": "Feature", "id": 4, "properties": { "code": "04", "nom": "Alpes-de-Haute-Provence" }, "geometry": { "type": "Point", "coordinates": [ 6.24475435, 44.10624151 ] } },
{ "type": "Feature", "id": 5, "properties": { "code": "05", "nom": "Hautes-Alpes" }, "geometry": { "type": "Point", "coordinates": [ 6.26495832, 44.66379038 ] } },
{ "type": "Feature", "id": 6, "properties": { "code": "06", "nom": "Alpes-Maritimes" }, "geometry": { "type": "Point", "coordinates": [ 7.11627986, 43.93795977 ] } },
{ "type": "Feature", "id": 7, "properties": { "code": "2A", "nom": "Corse-du-Sud" }, "geometry": { "type": "Point", "coordinates": [ 8.98759142, 41.86408731 ] } },
{ "type": "Feature", "id": 8, "properties": { "code": "2B", "nom": "Haute-Corse" }, "geometry": { "type": "Point", "coordinates": [ 9.20623006, 42.39487193 ] } },
{ "type": "Feature", "id": 9, "properties": { "code": "07", "nom": "Ardèche" }, "geometry": { "type": "Point", "coordinates": [ 4.42561511, 44.75271531 ] } },
{ "type": "Feature", "id": 10, "properties": { "code": "08", "nom": "Ardennes" }, "geometry": { "type": "Point", "coordinates": [ 4.6406987, 49.61616654 ] } },
{ "type": "Feature", "id": 11, "properties": { "code": "09", "nom": "Ariège" }, "geometry": { "type": "Point", "coordinates": [ 1.50355224, 42.92096623 ] } },
{ "type": "Feature", "id": 12, "properties": { "code": "10", "nom": "Aube" }, "geometry": { "type": "Point", "coordinates": [ 4.16143798, 48.30457594 ] } },
{ "type": "Feature", "id": 13, "properties": { "code": "11", "nom": "Aude" }, "geometry": { "type": "Point", "coordinates": [ 2.41367281, 43.10323492 ] } },
{ "type": "Feature", "id": 14, "properties": { "code": "12", "nom": "Aveyron" }, "geometry": { "type": "Point", "coordinates": [ 2.67854838, 44.28106318 ] } },
{ "type": "Feature", "id": 15, "properties": { "code": "13", "nom": "Bouches-du-Rhône" }, "geometry": { "type": "Point", "coordinates": [ 5.08534741, 43.54534962 ] } },
{ "type": "Feature", "id": 16, "properties": { "code": "14", "nom": "Calvados" }, "geometry": { "type": "Point", "coordinates": [ -0.36159133, 49.09979422 ] } },
{ "type": "Feature", "id": 17, "properties": { "code": "15", "nom": "Cantal" }, "geometry": { "type": "Point", "coordinates": [ 2.66900041, 45.05121712 ] } },
{ "type": "Feature", "id": 18, "properties": { "code": "16", "nom": "Charente" }, "geometry": { "type": "Point", "coordinates": [ 0.20306616, 45.71865374 ] } },
{ "type": "Feature", "id": 19, "properties": { "code": "17", "nom": "Charente-Maritime" }, "geometry": { "type": "Point", "coordinates": [ -0.6793619, 45.7752563 ] } },
{ "type": "Feature", "id": 20, "properties": { "code": "18", "nom": "Cher" }, "geometry": { "type": "Point", "coordinates": [ 2.49110852, 47.06579746 ] } },
{ "type": "Feature", "id": 21, "properties": { "code": "19", "nom": "Corrèze" }, "geometry": { "type": "Point", "coordinates": [ 1.87770834, 45.35728531 ] } },
{ "type": "Feature", "id": 22, "properties": { "code": "21", "nom": "Côte-d'Or" }, "geometry": { "type": "Point", "coordinates": [ 4.77163594, 47.42555453 ] } },
{ "type": "Feature", "id": 23, "properties": { "code": "22", "nom": "Côtes-d'Armor" }, "geometry": { "type": "Point", "coordinates": [ -2.86488822, 48.44089451 ] } },
{ "type": "Feature", "id": 24, "properties": { "code": "23", "nom": "Creuse" }, "geometry": { "type": "Point", "coordinates": [ 2.01820074, 46.09056035 ] } },
{ "type": "Feature", "id": 25, "properties": { "code": "24", "nom": "Dordogne" }, "geometry": { "type": "Point", "coordinates": [ 0.7412289, 45.10487595 ] } },
{ "type": "Feature", "id": 26, "properties": { "code": "25", "nom": "Doubs" }, "geometry": { "type": "Point", "coordinates": [ 6.36266994, 47.16586282 ] } },
{ "type": "Feature", "id": 27, "properties": { "code": "26", "nom": "Drôme" }, "geometry": { "type": "Point", "coordinates": [ 5.16739464, 44.68524528 ] } },
{ "type": "Feature", "id": 28, "properties": { "code": "27", "nom": "Eure" }, "geometry": { "type": "Point", "coordinates": [ 0.99639043, 49.11368541 ] } },
{ "type": "Feature", "id": 29, "properties": { "code": "28", "nom": "Eure-et-Loir" }, "geometry": { "type": "Point", "coordinates": [ 1.36998658, 48.38799282 ] } },
{ "type": "Feature", "id": 30, "properties": { "code": "29", "nom": "Finistère" }, "geometry": { "type": "Point", "coordinates": [ -4.05991886, 48.26176994 ] } },
{ "type": "Feature", "id": 31, "properties": { "code": "30", "nom": "Gard" }, "geometry": { "type": "Point", "coordinates": [ 4.17992482, 43.99359295 ] } },
{ "type": "Feature", "id": 32, "properties": { "code": "31", "nom": "Haute-Garonne" }, "geometry": { "type": "Point", "coordinates": [ 1.17495524, 43.35892528 ] } },
{ "type": "Feature", "id": 33, "properties": { "code": "32", "nom": "Gers" }, "geometry": { "type": "Point", "coordinates": [ 0.45289807, 43.69289115 ] } },
{ "type": "Feature", "id": 34, "properties": { "code": "33", "nom": "Gironde" }, "geometry": { "type": "Point", "coordinates": [ -0.5832146, 44.83899472 ] } },
{ "type": "Feature", "id": 35, "properties": { "code": "34", "nom": "Hérault" }, "geometry": { "type": "Point", "coordinates": [ 3.36851159, 43.57948182 ] } },
{ "type": "Feature", "id": 36, "properties": { "code": "35", "nom": "Ille-et-Vilaine" }, "geometry": { "type": "Point", "coordinates": [ -1.63813297, 48.15502068 ] } },
{ "type": "Feature", "id": 37, "properties": { "code": "36", "nom": "Indre" }, "geometry": { "type": "Point", "coordinates": [ 1.57602464, 46.77825364 ] } },
{ "type": "Feature", "id": 38, "properties": { "code": "37", "nom": "Indre-et-Loire" }, "geometry": { "type": "Point", "coordinates": [ 0.69111402, 47.25848879 ] } },
{ "type": "Feature", "id": 39, "properties": { "code": "38", "nom": "Isère" }, "geometry": { "type": "Point", "coordinates": [ 5.57418864, 45.26388875 ] } },
{ "type": "Feature", "id": 40, "properties": { "code": "39", "nom": "Jura" }, "geometry": { "type": "Point", "coordinates": [ 5.69735188, 46.72933655 ] } },
{ "type": "Feature", "id": 41, "properties": { "code": "40", "nom": "Landes" }, "geometry": { "type": "Point", "coordinates": [ -0.78367212, 43.96578062 ] } },
{ "type": "Feature", "id": 42, "properties": { "code": "41", "nom": "Loir-et-Cher" }, "geometry": { "type": "Point", "coordinates": [ 1.42785522, 47.61684539 ] } },
{ "type": "Feature", "id": 43, "properties": { "code": "42", "nom": "Loire" }, "geometry": { "type": "Point", "coordinates": [ 4.16455116, 45.72797738 ] } },
{ "type": "Feature", "id": 44, "properties": { "code": "43", "nom": "Haute-Loire" }, "geometry": { "type": "Point", "coordinates": [ 3.80627865, 45.12810327 ] } },
{ "type": "Feature", "id": 45, "properties": { "code": "44", "nom": "Loire-Atlantique" }, "geometry": { "type": "Point", "coordinates": [ -1.67923082, 47.36298003 ] } },
{ "type": "Feature", "id": 46, "properties": { "code": "45", "nom": "Loiret" }, "geometry": { "type": "Point", "coordinates": [ 2.34398078, 47.91185294 ] } },
{ "type": "Feature", "id": 47, "properties": { "code": "46", "nom": "Lot" }, "geometry": { "type": "Point", "coordinates": [ 1.6055243, 44.62458351 ] } },
{ "type": "Feature", "id": 48, "properties": { "code": "47", "nom": "Lot-et-Garonne" }, "geometry": { "type": "Point", "coordinates": [ 0.46074834, 44.36792736 ] } },
{ "type": "Feature", "id": 49, "properties": { "code": "48", "nom": "Lozère" }, "geometry": { "type": "Point", "coordinates": [ 3.4997058, 44.51749739 ] } },
{ "type": "Feature", "id": 50, "properties": { "code": "49", "nom": "Maine-et-Loire" }, "geometry": { "type": "Point", "coordinates": [ -0.55938505, 47.38984841 ] } },
{ "type": "Feature", "id": 51, "properties": { "code": "50", "nom": "Manche" }, "geometry": { "type": "Point", "coordinates": [ -1.32883632, 49.08128569 ] } },
{ "type": "Feature", "id": 52, "properties": { "code": "51", "nom": "Marne" }, "geometry": { "type": "Point", "coordinates": [ 4.2385172, 48.9498625 ] } },
{ "type": "Feature", "id": 53, "properties": { "code": "52", "nom": "Haute-Marne" }, "geometry": { "type": "Point", "coordinates": [ 5.22552696, 48.1104073 ] } },
{ "type": "Feature", "id": 54, "properties": { "code": "53", "nom": "Mayenne" }, "geometry": { "type": "Point", "coordinates": [ -0.65741582, 48.1472123 ] } },
{ "type": "Feature", "id": 55, "properties": { "code": "54", "nom": "Meurthe-et-Moselle" }, "geometry": { "type": "Point", "coordinates": [ 6.16192466, 48.78872584 ] } },
{ "type": "Feature", "id": 56, "properties": { "code": "55", "nom": "Meuse" }, "geometry": { "type": "Point", "coordinates": [ 5.38141636, 48.99112057 ] } },
{ "type": "Feature", "id": 57, "properties": { "code": "56", "nom": "Morbihan" }, "geometry": { "type": "Point", "coordinates": [ -2.81082991, 47.84746496 ] } },
{ "type": "Feature", "id": 58, "properties": { "code": "57", "nom": "Moselle" }, "geometry": { "type": "Point", "coordinates": [ 6.66137145, 49.03752363 ] } },
{ "type": "Feature", "id": 59, "properties": { "code": "58", "nom": "Nièvre" }, "geometry": { "type": "Point", "coordinates": [ 3.50416599, 47.11568065 ] } },
{ "type": "Feature", "id": 60, "properties": { "code": "59", "nom": "Nord" }, "geometry": { "type": "Point", "coordinates": [ 3.21550843, 50.44761468 ] } },
{ "type": "Feature", "id": 61, "properties": { "code": "60", "nom": "Oise" }, "geometry": { "type": "Point", "coordinates": [ 2.4250607, 49.40990832 ] } },
{ "type": "Feature", "id": 62, "properties": { "code": "61", "nom": "Orne" }, "geometry": { "type": "Point", "coordinates": [ 0.12782644, 48.62305983 ] } },
{ "type": "Feature", "id": 63, "properties": { "code": "62", "nom": "Pas-de-Calais" }, "geometry": { "type": "Point", "coordinates": [ 2.28629951, 50.49377091 ] } },
{ "type": "Feature", "id": 64, "properties": { "code": "63", "nom": "Puy-de-Dôme" }, "geometry": { "type": "Point", "coordinates": [ 3.14016121, 45.7258626 ] } },
{ "type": "Feature", "id": 65, "properties": { "code": "64", "nom": "Pyrénées-Atlantiques" }, "geometry": { "type": "Point", "coordinates": [ -0.76171698, 43.25632057 ] } },
{ "type": "Feature", "id": 66, "properties": { "code": "65", "nom": "Hautes-Pyrénées" }, "geometry": { "type": "Point", "coordinates": [ 0.16384892, 43.05366135 ] } },
{ "type": "Feature", "id": 67, "properties": { "code": "66", "nom": "Pyrénées-Orientales" }, "geometry": { "type": "Point", "coordinates": [ 2.52239242, 42.59974137 ] } },
{ "type": "Feature", "id": 68, "properties": { "code": "67", "nom": "Bas-Rhin" }, "geometry": { "type": "Point", "coordinates": [ 7.55199318, 48.67146082 ] } },
{ "type": "Feature", "id": 69, "properties": { "code": "68", "nom": "Haut-Rhin" }, "geometry": { "type": "Point", "coordinates": [ 7.27396294, 47.85937595 ] } },
{ "type": "Feature", "id": 70, "properties": { "code": "69", "nom": "Rhône" }, "geometry": { "type": "Point", "coordinates": [ 4.64080767, 45.87096515 ] } },
{ "type": "Feature", "id": 71, "properties": { "code": "70", "nom": "Haute-Saône" }, "geometry": { "type": "Point", "coordinates": [ 6.08724221, 47.64121233 ] } },
{ "type": "Feature", "id": 72, "properties": { "code": "71", "nom": "Saône-et-Loire" }, "geometry": { "type": "Point", "coordinates": [ 4.54275227, 46.64476768 ] } },
{ "type": "Feature", "id": 73, "properties": { "code": "72", "nom": "Sarthe" }, "geometry": { "type": "Point", "coordinates": [ 0.22258265, 47.99488878 ] } },
{ "type": "Feature", "id": 74, "properties": { "code": "73", "nom": "Savoie" }, "geometry": { "type": "Point", "coordinates": [ 6.44286926, 45.4775161 ] } },
{ "type": "Feature", "id": 75, "properties": { "code": "74", "nom": "Haute-Savoie" }, "geometry": { "type": "Point", "coordinates": [ 6.4284108, 46.03459494 ] } },
{ "type": "Feature", "id": 76, "properties": { "code": "75", "nom": "Paris" }, "geometry": { "type": "Point", "coordinates": [ 2.34283532, 48.85660415 ] } },
{ "type": "Feature", "id": 77, "properties": { "code": "76", "nom": "Seine-Maritime" }, "geometry": { "type": "Point", "coordinates": [ 1.02724743, 49.65467852 ] } },
{ "type": "Feature", "id": 78, "properties": { "code": "77", "nom": "Seine-et-Marne" }, "geometry": { "type": "Point", "coordinates": [ 2.93409334, 48.62746245 ] } },
{ "type": "Feature", "id": 79, "properties": { "code": "78", "nom": "Yvelines" }, "geometry": { "type": "Point", "coordinates": [ 1.84127475, 48.81531249 ] } },
{ "type": "Feature", "id": 80, "properties": { "code": "79", "nom": "Deux-Sèvres" }, "geometry": { "type": "Point", "coordinates": [ -0.31777686, 46.55695044 ] } },
{ "type": "Feature", "id": 81, "properties": { "code": "80", "nom": "Somme" }, "geometry": { "type": "Point", "coordinates": [ 2.27611829, 49.95787511 ] } },
{ "type": "Feature", "id": 82, "properties": { "code": "81", "nom": "Tarn" }, "geometry": { "type": "Point", "coordinates": [ 2.16570949, 43.78570723 ] } },
{ "type": "Feature", "id": 83, "properties": { "code": "82", "nom": "Tarn-et-Garonne" }, "geometry": { "type": "Point", "coordinates": [ 1.28217072, 44.08576056 ] } },
{ "type": "Feature", "id": 84, "properties": { "code": "83", "nom": "Var" }, "geometry": { "type": "Point", "coordinates": [ 6.24456484, 43.44160878 ] } },
{ "type": "Feature", "id": 85, "properties": { "code": "84", "nom": "Vaucluse" }, "geometry": { "type": "Point", "coordinates": [ 5.17728255, 44.00712427 ] } },
{ "type": "Feature", "id": 86, "properties": { "code": "85", "nom": "Vendée" }, "geometry": { "type": "Point", "coordinates": [ -1.29847579, 46.67493532 ] } },
{ "type": "Feature", "id": 87, "properties": { "code": "86", "nom": "Vienne" }, "geometry": { "type": "Point", "coordinates": [ 0.45946439, 46.56493175 ] } },
{ "type": "Feature", "id": 88, "properties": { "code": "87", "nom": "Haute-Vienne" }, "geometry": { "type": "Point", "coordinates": [ 1.23484453, 45.89224539 ] } },
{ "type": "Feature", "id": 89, "properties": { "code": "88", "nom": "Vosges" }, "geometry": { "type": "Point", "coordinates": [ 6.38020493, 48.19624234 ] } },
{ "type": "Feature", "id": 90, "properties": { "code": "89", "nom": "Yonne" }, "geometry": { "type": "Point", "coordinates": [ 3.56329746, 47.8405047 ] } },
{ "type": "Feature", "id": 91, "properties": { "code": "90", "nom": "Territoire de Belfort" }, "geometry": { "type": "Point", "coordinates": [ 6.92861656, 47.63166832 ] } },
{ "type": "Feature", "id": 92, "properties": { "code": "91", "nom": "Essonne" }, "geometry": { "type": "Point", "coordinates": [ 2.24342115, 48.52260434 ] } },
{ "type": "Feature", "id": 93, "properties": { "code": "92", "nom": "Hauts-de-Seine" }, "geometry": { "type": "Point", "coordinates": [ 2.24607369, 48.84753485 ] } },
{ "type": "Feature", "id": 94, "properties": { "code": "93", "nom": "Seine-Saint-Denis" }, "geometry": { "type": "Point", "coordinates": [ 2.47844392, 48.91762489 ] } },
{ "type": "Feature", "id": 95, "properties": { "code": "94", "nom": "Val-de-Marne" }, "geometry": { "type": "Point", "coordinates": [ 2.46926339, 48.77744891 ] } },
{ "type": "Feature", "id": 96, "properties": { "code": "95", "nom": "Val-d'Oise" }, "geometry": { "type": "Point", "coordinates": [ 2.13095202, 49.08271475 ] } }
]
}
